City_ID,City,Country,Date,Lat,Lng,Max Temp,Humidity,Cloudiness,Wind Speed,Current Description
0,Mar Del Plata,AR,2022-11-30 21:18:00,-38.0023,-57.5575,65.08,97,100,15.01,light rain
1,Ribeira Grande,PT,2022-11-30 21:20:20,38.5167,-28.7,63.0,72,75,5.75,broken clouds
2,Cape Town,ZA,2022-11-30 21:19:02,-33.9258,18.4232,67.26,81,0,9.22,clear sky
3,Longyearbyen,SJ,2022-11-30 21:19:44,78.2186,15.6401,35.44,87,75,11.5,light shower sleet
4,Castro,BR,2022-11-30 21:20:21,-24.7911,-50.0119,67.19,89,85,2.33,light rain
5,Santa Rosa,PH,2022-11-30 21:20:21,14.3122,121.1114,78.12,94,100,10.27,light rain
6,Bredasdorp,ZA,2022-11-30 21:20:22,-34.5322,20.0403,63.64,80,68,2.1,broken clouds
7,Mandurah,AU,2022-11-30 21:20:22,-32.55,115.7,64.98,79,100,11.65,overcast clouds
8,Tres Arroyos,AR,2022-11-30 21:20:23,-38.3739,-60.2798,65.3,47,100,17.69,overcast clouds
9,Mataura,NZ,2022-11-30 21:20:23,-46.1927,168.8643,50.49,53,81,6.93,broken clouds
10,Hermanus,ZA,2022-11-30 21:20:24,-34.4187,19.2345,59.81,87,48,2.68,scattered clouds
11,Codrington,AU,2022-11-30 21:20:24,-38.2667,141.9667,57.45,88,83,3.8,broken clouds
12,Brae,GB,2022-11-30 21:20:25,60.3964,-1.353,48.24,83,99,21.54,overcast clouds
13,Lebu,CL,2022-11-30 21:18:00,-37.6167,-73.65,55.89,65,0,20.85,clear sky
14,Hasaki,JP,2022-11-30 21:20:25,35.7333,140.8333,52.29,74,100,21.59,overcast clouds
15,Jamestown,US,2022-11-30 21:20:26,42.097,-79.2353,35.19,71,100,24.16,overcast clouds
16,Busselton,AU,2022-11-30 21:20:26,-33.65,115.3333,62.08,81,99,9.28,overcast clouds
17,New Norfolk,AU,2022-11-30 21:20:27,-42.7826,147.0587,53.92,48,5,3.0,clear sky
18,Saint-Pierre,RE,2022-11-30 21:20:27,-21.3393,55.4781,74.88,64,75,6.91,broken clouds
19,Chifeng,CN,2022-11-30 21:20:28,42.2683,118.9636,7.02,35,0,10.13,clear sky
20,Okmulgee,US,2022-11-30 21:17:05,35.6234,-95.9605,46.17,19,0,11.5,clear sky
21,Albany,US,2022-11-30 21:20:02,42.6001,-73.9662,51.26,93,100,10.71,moderate rain
22,Bluff,NZ,2022-11-30 21:20:29,-46.6,168.3333,50.81,84,96,16.89,overcast clouds
23,Feucht,DE,2022-11-30 21:20:30,49.3767,11.2139,36.12,80,100,4.61,overcast clouds
24,Tiksi,RU,2022-11-30 21:20:30,71.6872,128.8694,-11.85,100,100,14.43,overcast clouds
25,Ponta Do Sol,PT,2022-11-30 21:20:31,32.6667,-17.1,66.13,74,6,2.04,clear sky
26,Butaritari,KI,2022-11-30 21:20:31,3.0707,172.7902,81.28,76,15,12.84,few clouds
27,Ushuaia,AR,2022-11-30 21:20:32,-54.8,-68.3,49.66,53,75,27.63,broken clouds
28,Samarai,PG,2022-11-30 21:20:32,-10.6167,150.6667,82.38,77,100,7.81,overcast clouds
29,Pevek,RU,2022-11-30 21:20:33,69.7008,170.3133,1.17,91,100,2.42,overcast clouds
30,Puerto Ayora,EC,2022-11-30 21:20:24,-0.7393,-90.3518,76.96,87,68,7.0,broken clouds
31,Nemuro,JP,2022-11-30 21:20:34,43.3236,145.575,29.57,54,10,21.56,clear sky
32,Acapulco,MX,2022-11-30 21:19:54,16.8634,-99.8901,85.82,66,40,5.75,scattered clouds
33,Banikoara,BJ,2022-11-30 21:20:36,11.2985,2.4386,77.29,22,83,4.63,broken clouds
34,Makakilo City,US,2022-11-30 21:20:36,21.3469,-158.0858,83.61,59,0,9.22,clear sky
35,Totness,SR,2022-11-30 21:20:37,5.8833,-56.3167,78.91,80,75,8.95,broken clouds
36,Jalu,LY,2022-11-30 21:20:38,29.0331,21.5482,59.59,40,0,7.72,clear sky
37,Klaksvik,FO,2022-11-30 21:20:38,62.2266,-6.589,49.12,94,100,32.23,light rain
38,Rikitea,PF,2022-11-30 21:20:38,-23.1203,-134.9692,72.72,71,92,12.86,overcast clouds
39,Vaini,TO,2022-11-30 21:20:39,-21.2,-175.2,82.56,78,75,4.61,broken clouds
40,Iasmos,GR,2022-11-30 21:20:39,41.1333,25.1833,45.25,87,100,15.7,overcast clouds
41,Nikolskoye,RU,2022-11-30 21:20:40,59.7035,30.7861,24.69,90,98,3.65,overcast clouds
42,Knysna,ZA,2022-11-30 21:20:40,-34.0363,23.0471,64.58,79,8,3.89,clear sky
43,Arraial Do Cabo,BR,2022-11-30 21:20:41,-22.9661,-42.0278,73.36,94,100,19.57,mist
44,Lappeenranta,FI,2022-11-30 21:20:41,61.0587,28.1887,26.78,93,100,1.14,overcast clouds
45,Marienburg,PL,2022-11-30 21:21:42,54.0359,19.0266,35.89,82,100,4.38,overcast clouds
46,Kattivakkam,IN,2022-11-30 21:21:42,13.2167,80.3167,78.89,86,17,7.56,few clouds
47,Kapaa,US,2022-11-30 21:20:18,22.0752,-159.319,82.72,78,0,14.97,clear sky
48,Tuktoyaktuk,CA,2022-11-30 21:20:44,69.4541,-133.0374,-0.4,85,100,10.36,light snow
49,Nelson Bay,AU,2022-11-30 21:21:44,-32.7167,152.15,68.0,78,100,5.99,moderate rain
50,Chokurdakh,RU,2022-11-30 21:21:44,70.6333,147.9167,-0.83,97,100,9.71,overcast clouds
51,Hithadhoo,MV,2022-11-30 21:21:45,-0.6,73.0833,80.76,74,69,6.64,broken clouds
52,Vardo,NO,2022-11-30 21:21:45,70.3705,31.1107,30.18,86,40,9.22,scattered clouds
53,Ambilobe,MG,2022-11-30 21:19:54,-13.2,49.05,76.32,83,97,1.43,light rain
54,Atuona,PF,2022-11-30 21:21:46,-9.8,-139.0333,77.9,74,54,16.15,broken clouds
55,Sembe,CG,2022-11-30 21:21:46,1.6481,14.5806,70.02,99,100,0.94,overcast clouds
56,Erenhot,CN,2022-11-30 21:21:47,43.6475,111.9767,2.52,69,44,10.04,scattered clouds
57,Hofn,IS,2022-11-30 21:21:48,64.2539,-15.2082,48.07,99,100,22.32,overcast clouds
58,Santa Maria,BR,2022-11-30 21:21:48,-29.6842,-53.8069,87.1,45,20,13.8,few clouds
59,Jiexiu,CN,2022-11-30 21:21:49,37.0244,111.9125,17.15,14,0,6.31,clear sky
60,Sao Filipe,CV,2022-11-30 21:21:49,14.8961,-24.4956,75.92,65,50,9.55,scattered clouds
61,Punta Arenas,CL,2022-11-30 21:18:57,-53.15,-70.9167,50.11,62,75,19.57,broken clouds
62,Saint-Philippe,RE,2022-11-30 21:21:50,-21.3585,55.7679,74.79,78,30,8.97,scattered clouds
63,Homer,US,2022-11-30 21:17:37,59.6425,-151.5483,25.03,63,0,4.61,clear sky
64,Fortuna,US,2022-11-30 21:21:51,40.5982,-124.1573,55.74,70,100,17.27,overcast clouds
65,Whitianga,NZ,2022-11-30 21:21:51,-36.8333,175.7,63.93,64,57,13.98,broken clouds
66,Aklavik,CA,2022-11-30 21:21:52,68.2191,-135.0107,1.4,78,100,3.44,light snow
67,Bazpur,IN,2022-11-30 21:21:52,29.15,79.1167,60.13,72,0,4.47,clear sky
68,Souris,CA,2022-11-30 21:21:53,49.6172,-100.2612,8.46,74,27,5.86,scattered clouds
69,San Patricio,US,2022-11-30 21:21:53,28.017,-97.5169,66.29,44,3,17.72,clear sky
70,Yellowknife,CA,2022-11-30 21:21:54,62.456,-114.3525,-13.45,76,40,3.44,scattered clouds
71,Camocim,BR,2022-11-30 21:21:54,-2.9022,-40.8411,80.46,75,88,14.63,moderate rain
72,Katsuura,JP,2022-11-30 21:21:55,35.1333,140.3,55.17,84,100,17.49,light rain
73,Alice Springs,AU,2022-11-30 21:21:21,-23.7,133.8833,58.55,58,0,0.0,clear sky
74,Okato,NZ,2022-11-30 21:21:56,-39.2,173.8833,62.91,100,33,13.76,scattered clouds
75,Khasan,RU,2022-11-30 21:21:57,42.4308,130.6434,15.89,50,57,18.03,broken clouds
76,Flin Flon,CA,2022-11-30 21:21:57,54.7682,-101.865,-7.76,59,75,8.05,broken clouds
77,Taldan,RU,2022-11-30 21:21:57,53.6667,124.8,-17.16,78,22,7.45,few clouds
78,Jawhar,SO,2022-11-30 21:21:58,2.7809,45.5005,76.68,75,72,11.9,broken clouds
79,Barrow,US,2022-11-30 21:21:58,71.2906,-156.7887,28.42,93,100,12.66,light snow
80,Maceio,BR,2022-11-30 21:21:59,-9.6658,-35.7353,78.24,83,20,5.75,few clouds
81,Hirara,JP,2022-11-30 21:22:00,24.8,125.2833,72.68,80,100,28.05,overcast clouds
82,Ancud,CL,2022-11-30 21:20:58,-41.8697,-73.8203,55.08,57,14,6.6,few clouds
83,Bethel,US,2022-11-30 21:22:01,41.3712,-73.414,57.56,84,100,4.0,moderate rain
84,Makkaveyevo,RU,2022-11-30 21:22:01,51.7533,113.9454,-1.39,77,80,12.84,broken clouds
85,Naruto,JP,2022-11-30 21:22:02,34.1833,134.6167,46.45,57,75,11.5,broken clouds
86,Alpena,US,2022-11-30 21:23:04,45.0617,-83.4327,30.18,79,100,15.01,overcast clouds
87,Yulara,AU,2022-11-30 21:23:04,-25.2406,130.9889,68.67,25,1,7.47,clear sky
88,Ketchikan,US,2022-11-30 21:21:51,55.3422,-131.6461,25.27,26,0,13.8,clear sky
89,Nicoya,CR,2022-11-30 21:23:05,10.1483,-85.452,77.77,82,100,8.05,overcast clouds
90,Xining,CN,2022-11-30 21:23:06,36.6167,101.7667,13.12,48,96,1.32,overcast clouds
91,East London,ZA,2022-11-30 21:23:07,-33.0153,27.9116,72.27,90,100,12.33,overcast clouds
92,Mokrous,RU,2022-11-30 21:23:07,51.2333,47.5167,19.96,80,5,6.64,clear sky
93,Musoma,TZ,2022-11-30 21:23:08,-1.5,33.8,70.32,75,100,4.68,overcast clouds
94,Batagay,RU,2022-11-30 21:23:08,67.6333,134.6333,-25.37,99,100,1.66,overcast clouds
95,Sawtell,AU,2022-11-30 21:23:09,-30.3833,153.1,60.82,94,100,6.91,light rain
96,Portobelo,PA,2022-11-30 21:23:09,9.55,-79.65,81.05,84,98,2.64,moderate rain
97,Palmer,US,2022-11-30 21:22:14,42.1584,-72.3287,56.34,84,100,19.57,moderate rain
98,Carnarvon,AU,2022-11-30 21:23:10,-24.8667,113.6333,68.74,82,3,15.41,clear sky
99,Leningradskiy,RU,2022-11-30 21:23:11,69.3833,178.4167,3.45,95,94,3.6,overcast clouds
100,Surt,LY,2022-11-30 21:23:11,31.2089,16.5887,63.41,47,0,12.55,clear sky
101,Taksimo,RU,2022-11-30 21:23:12,56.3444,114.8794,-14.78,94,100,0.4,overcast clouds
102,Avarua,CK,2022-11-30 21:23:12,-21.2078,-159.775,82.45,74,40,18.41,scattered clouds
103,Mount Gambier,AU,2022-11-30 21:23:13,-37.8333,140.7667,56.5,88,60,6.29,broken clouds
104,Hobart,AU,2022-11-30 21:19:25,-42.8794,147.3294,54.27,60,75,12.66,broken clouds
105,Cidreira,BR,2022-11-30 21:20:07,-30.1811,-50.2056,71.08,91,99,18.12,overcast clouds
106,Cabedelo,BR,2022-11-30 21:23:14,-6.9811,-34.8339,81.27,69,97,11.03,overcast clouds
107,Casablanca,MA,2022-11-30 21:23:15,33.5928,-7.6192,51.82,68,26,3.15,scattered clouds
108,Orotukan,RU,2022-11-30 21:23:16,62.2667,151.7,-21.24,100,100,3.78,overcast clouds
109,Yerbogachen,RU,2022-11-30 21:23:18,61.2767,108.0108,-4.07,97,100,7.07,overcast clouds
110,Polewali,ID,2022-11-30 21:23:18,-3.4324,119.3435,76.01,87,100,3.02,overcast clouds
111,Omboue,GA,2022-11-30 21:23:19,-1.5746,9.2618,77.14,89,100,5.84,overcast clouds
112,Lorengau,PG,2022-11-30 21:23:19,-2.0226,147.2712,81.77,77,97,4.25,overcast clouds
113,Patea,NZ,2022-11-30 21:23:20,-39.7583,174.4833,59.05,76,80,4.07,broken clouds
114,Upernavik,GL,2022-11-30 21:22:04,72.7868,-56.1549,7.77,90,100,17.18,overcast clouds
115,Bambous Virieux,MU,2022-11-30 21:23:21,-20.3428,57.7575,74.21,83,40,2.3,light rain
116,Chapais,CA,2022-11-30 21:23:22,49.7834,-74.8492,24.58,97,100,13.8,snow
117,Maracana,BR,2022-11-30 21:23:22,-0.7667,-47.45,77.67,80,100,2.82,overcast clouds
118,Merritt Island,US,2022-11-30 21:23:23,28.5392,-80.672,86.09,61,0,9.22,clear sky
119,Conceicao Do Araguaia,BR,2022-11-30 21:23:23,-8.2578,-49.2647,76.14,91,96,3.56,overcast clouds
120,Luderitz,NA,2022-11-30 21:23:24,-26.6481,15.1594,63.23,79,0,10.8,clear sky
121,Mvangue,CM,2022-11-30 21:23:25,2.9667,11.5167,70.3,88,69,2.51,light rain
122,Lompoc,US,2022-11-30 21:22:36,34.6391,-120.4579,65.79,76,100,11.5,overcast clouds
123,Meulaboh,ID,2022-11-30 21:21:17,4.1363,96.1285,75.18,90,100,3.56,overcast clouds
124,Champerico,GT,2022-11-30 21:23:26,14.3,-91.9167,91.94,73,17,8.28,few clouds
125,Baykit,RU,2022-11-30 21:23:26,61.67,96.37,1.69,96,100,5.95,light snow
126,Sangolqui,EC,2022-11-30 21:23:27,-0.3341,-78.4522,68.49,71,42,7.0,light rain
127,Qasigiannguit,GL,2022-11-30 21:23:28,68.8193,-51.1922,23.25,94,100,9.8,light snow
128,Ostrovnoy,RU,2022-11-30 21:23:28,68.0531,39.5131,20.41,93,85,7.52,overcast clouds
129,Port Alfred,ZA,2022-11-30 21:23:29,-33.5906,26.891,66.18,95,100,5.32,overcast clouds
130,Khatanga,RU,2022-11-30 21:24:29,71.9667,102.5,-38.06,100,63,5.64,broken clouds
131,Port Blair,IN,2022-11-30 21:24:29,11.6667,92.75,80.37,83,91,7.05,overcast clouds
132,Tasiilaq,GL,2022-11-30 21:24:30,65.6145,-37.6368,39.36,95,100,22.35,light rain
133,Martil,MA,2022-11-30 21:24:30,35.6166,-5.2752,49.96,81,0,2.3,clear sky
134,Hamilton,US,2022-11-30 21:24:31,39.1834,-84.5333,39.83,50,0,14.97,clear sky
135,Pontes E Lacerda,BR,2022-11-30 21:24:31,-15.2261,-59.3353,73.92,90,100,5.39,overcast clouds
136,College,US,2022-11-30 21:21:10,64.8569,-147.8028,4.21,78,100,0.0,overcast clouds
137,Calama,CL,2022-11-30 21:24:32,-22.4667,-68.9333,72.09,12,0,27.63,clear sky
138,Cayenne,GF,2022-11-30 21:24:33,4.9333,-52.3333,80.64,83,40,4.61,scattered clouds
139,Pangnirtung,CA,2022-11-30 21:21:07,66.1451,-65.7125,-5.8,54,20,4.61,few clouds
140,Saldanha,ZA,2022-11-30 21:19:50,-33.0117,17.9442,62.65,91,10,10.09,clear sky
141,Cherskiy,RU,2022-11-30 21:24:34,68.75,161.3,1.44,95,100,3.0,overcast clouds
142,Inuvik,CA,2022-11-30 21:24:34,68.3499,-133.7218,0.46,85,75,4.61,light snow
143,Airai,TL,2022-11-30 21:24:35,-8.9266,125.4092,60.53,92,100,1.1,overcast clouds
144,Vanimo,PG,2022-11-30 21:24:35,-2.6741,141.3028,77.45,89,100,5.19,overcast clouds
145,Pisco,PE,2022-11-30 21:20:35,-13.7,-76.2167,73.45,68,0,19.57,clear sky
146,Kudahuvadhoo,MV,2022-11-30 21:21:17,2.6708,72.8944,79.75,69,23,4.21,few clouds
147,Praia Da Vitoria,PT,2022-11-30 21:24:15,38.7333,-27.0667,60.76,100,75,6.26,broken clouds
148,Port Elizabeth,ZA,2022-11-30 21:24:37,-33.918,25.5701,67.1,89,0,8.05,clear sky
149,Vyartsilya,RU,2022-11-30 21:24:37,62.1764,30.693,26.62,100,100,4.03,snow
150,San Quintin,MX,2022-11-30 21:24:38,30.4833,-115.95,61.14,62,14,11.1,few clouds
151,Micheweni,TZ,2022-11-30 21:24:38,-4.9667,39.8333,78.51,83,48,7.61,scattered clouds
152,Provideniya,RU,2022-11-30 21:24:38,64.3833,-173.3,32.11,69,0,8.95,clear sky
153,Tura,IN,2022-11-30 21:24:39,25.5198,90.2201,61.14,88,2,3.49,clear sky
154,Milkovo,RU,2022-11-30 21:24:39,54.7167,158.6167,7.81,95,69,3.47,broken clouds
155,Narsaq,GL,2022-11-30 21:24:40,60.9167,-46.05,28.62,87,99,3.8,overcast clouds
156,Amilly,FR,2022-11-30 21:22:54,47.9728,2.7719,44.15,87,100,10.65,overcast clouds
157,Waipawa,NZ,2022-11-30 21:24:41,-41.4122,175.5153,53.96,71,91,13.27,overcast clouds
158,Cabo San Lucas,MX,2022-11-30 21:19:42,22.8909,-109.9124,82.62,61,20,9.22,few clouds
159,Lashio,MM,2022-11-30 21:24:42,22.9333,97.75,59.47,95,2,1.34,clear sky
160,Hobyo,SO,2022-11-30 21:20:32,5.3505,48.5268,79.5,76,10,12.3,clear sky
161,Engis,BE,2022-11-30 21:24:42,50.5816,5.3992,43.88,93,75,6.91,broken clouds
162,Bata,GQ,2022-11-30 21:24:43,1.8639,9.7658,79.34,84,90,4.0,overcast clouds
163,Esperance,AU,2022-11-30 21:24:43,-33.8667,121.9,65.25,63,20,13.69,few clouds
164,La Ronge,CA,2022-11-30 21:24:44,55.1001,-105.2842,-10.95,58,75,4.61,broken clouds
165,Sorkjosen,NO,2022-11-30 21:24:44,69.8,20.9333,30.2,74,100,9.22,overcast clouds
166,Luyang,CN,2022-11-30 21:24:45,27.6239,110.0989,27.7,89,100,5.06,snow
167,Bonthe,SL,2022-11-30 21:24:45,7.5264,-12.505,79.2,79,27,5.55,scattered clouds
168,Georgetown,MY,2022-11-30 21:24:46,5.4112,100.3354,80.24,89,20,4.61,few clouds
169,Nanortalik,GL,2022-11-30 21:21:46,60.1432,-45.2371,29.73,84,100,25.32,overcast clouds
170,Norman Wells,CA,2022-11-30 21:24:46,65.282,-126.8329,-12.96,77,75,0.0,light snow
171,Margate,GB,2022-11-30 21:21:33,51.3813,1.3862,48.69,90,74,1.99,broken clouds
172,Juneau,US,2022-11-30 21:20:44,58.3019,-134.4197,19.4,100,0,10.36,clear sky
173,Kaitangata,NZ,2022-11-30 21:24:47,-46.2817,169.8464,58.24,51,12,10.42,few clouds
174,Geraldton,AU,2022-11-30 21:25:48,-28.7667,114.6,68.41,68,100,9.22,overcast clouds
175,Qaanaaq,GL,2022-11-30 21:25:49,77.484,-69.3632,-21.98,77,17,5.19,few clouds
176,Bondo,CD,2022-11-30 21:25:49,3.8146,23.6866,68.36,99,100,1.63,overcast clouds
177,Verkhoyansk,RU,2022-11-30 21:25:50,67.5447,133.385,-20.97,99,100,3.13,overcast clouds
178,Carutapera,BR,2022-11-30 21:25:50,-1.195,-46.02,79.32,75,99,6.6,light rain
179,San Rafael,AR,2022-11-30 21:23:57,-34.6177,-68.3301,83.86,16,6,11.74,clear sky
180,Phuket,TH,2022-11-30 21:21:04,8.0,98.25,86.09,100,20,0.0,few clouds
181,Saskylakh,RU,2022-11-30 21:21:12,71.9167,114.0833,-27.96,100,100,8.39,overcast clouds
182,Hami,CN,2022-11-30 21:25:52,42.8,93.45,10.99,22,83,1.54,broken clouds
183,Anchorage,US,2022-11-30 21:21:49,61.2181,-149.9003,15.67,88,75,5.75,broken clouds
184,Isangel,VU,2022-11-30 21:25:52,-19.55,169.2667,86.11,84,40,4.61,scattered clouds
185,Garden City,US,2022-11-30 21:25:53,42.3256,-83.331,33.89,62,100,25.32,overcast clouds
186,Nyurba,RU,2022-11-30 21:25:53,63.2842,118.3319,-24.39,97,99,5.26,overcast clouds
187,Carauari,BR,2022-11-30 21:25:54,-4.8828,-66.8958,83.5,73,100,0.94,overcast clouds
188,Hastings,GB,2022-11-30 21:25:54,50.8552,0.5729,47.91,94,79,6.62,broken clouds
189,Junin,AR,2022-11-30 21:25:54,-34.5838,-60.9433,71.89,73,100,7.85,overcast clouds
190,Krasnyy Kholm,RU,2022-11-30 21:25:55,58.0607,37.1203,4.44,98,92,3.85,overcast clouds
191,Piacabucu,BR,2022-11-30 21:25:55,-10.4056,-36.4344,74.95,86,100,9.53,overcast clouds
192,Muravlenko,RU,2022-11-30 21:25:56,63.7898,74.523,-18.2,100,12,4.32,few clouds
193,Igunga,TZ,2022-11-30 21:25:56,-4.2833,33.8833,75.65,55,100,5.26,overcast clouds
194,Yatou,CN,2022-11-30 21:25:57,37.15,122.3833,27.84,70,53,10.49,broken clouds
195,Lindau,DE,2022-11-30 21:25:57,47.55,9.6833,41.4,80,100,11.01,overcast clouds
196,Otuzco,PE,2022-11-30 21:25:58,-7.9,-78.5833,55.26,68,82,8.23,broken clouds
197,Chapleau,CA,2022-11-30 21:25:58,47.8405,-83.4034,24.89,80,75,14.97,broken clouds
198,Qaqortoq,GL,2022-11-30 21:25:59,60.7167,-46.0333,25.79,85,99,1.57,overcast clouds
199,Henties Bay,NA,2022-11-30 21:25:59,-22.116,14.2845,60.87,88,5,6.44,clear sky
200,Port-Gentil,GA,2022-11-30 21:26:00,-0.7193,8.7815,80.56,89,20,5.75,few clouds
201,Shihezi,CN,2022-11-30 21:26:00,44.3,86.0333,3.97,81,86,2.3,overcast clouds
202,Havelock,US,2022-11-30 21:26:00,34.8791,-76.9013,67.98,89,0,5.75,clear sky
203,Hargeysa,SO,2022-11-30 21:26:01,9.56,44.065,60.33,81,2,11.52,clear sky
204,Kapit,MY,2022-11-30 21:26:01,2.0167,112.9333,73.22,99,100,1.16,overcast clouds
205,Yubari,JP,2022-11-30 21:26:02,43.0378,141.9578,19.9,75,88,14.18,overcast clouds
206,Abay,KZ,2022-11-30 21:26:03,49.6311,72.8539,8.98,91,100,10.36,light snow
207,Toma,BF,2022-11-30 21:26:04,12.7667,-2.8833,76.37,15,87,6.87,overcast clouds
208,Dingle,PH,2022-11-30 21:26:05,10.9995,122.6711,75.42,93,98,8.05,moderate rain
209,Severo-Kurilsk,RU,2022-11-30 21:23:59,50.6789,156.125,28.8,86,48,10.4,light snow
210,Pundaguitan,PH,2022-11-30 21:26:06,6.3711,126.1689,79.52,86,100,13.22,overcast clouds
211,Kudligi,IN,2022-11-30 21:26:06,14.9,76.3833,67.32,61,2,5.61,clear sky
212,Egvekinot,RU,2022-11-30 21:26:07,66.3167,-179.1667,9.14,85,43,2.8,scattered clouds
213,Bagua Grande,PE,2022-11-30 21:26:08,-5.7561,-78.4411,99.63,20,84,6.13,broken clouds
214,Iskilip,TR,2022-11-30 21:26:08,40.7353,34.4739,49.78,74,97,2.86,overcast clouds
215,Saint George,US,2022-11-30 21:21:32,37.1041,-113.5841,57.43,24,0,8.05,clear sky
216,Norrtalje,SE,2022-11-30 21:26:09,59.758,18.705,38.01,83,100,2.37,overcast clouds
217,Colesberg,ZA,2022-11-30 21:26:10,-30.72,25.0972,67.87,63,96,7.92,light rain
218,Pitiquito,MX,2022-11-30 21:26:11,30.7,-112.0833,73.63,30,62,7.58,broken clouds
219,Axim,GH,2022-11-30 21:26:12,4.8699,-2.2405,79.05,81,94,5.23,overcast clouds
220,Fairbanks,US,2022-11-30 21:25:18,64.8378,-147.7164,4.23,78,100,0.0,overcast clouds
221,Dudinka,RU,2022-11-30 21:27:13,69.4058,86.1778,0.43,99,99,6.24,overcast clouds
222,Antofagasta,CL,2022-11-30 21:27:14,-23.65,-70.4,67.28,71,2,7.76,clear sky
223,Port Lincoln,AU,2022-11-30 21:27:14,-34.7333,135.8667,59.13,76,12,14.03,few clouds
224,Peterhead,GB,2022-11-30 21:27:15,57.5058,-1.7981,43.2,80,96,21.52,overcast clouds
225,Guilin,CN,2022-11-30 21:27:15,25.2819,110.2864,37.51,89,100,9.95,overcast clouds
226,Taltal,CL,2022-11-30 21:27:16,-25.4,-70.4833,65.71,76,35,7.27,scattered clouds
227,Bengkulu,ID,2022-11-30 21:27:17,-3.8004,102.2655,74.17,88,100,3.83,overcast clouds
228,Bhatkal,IN,2022-11-30 21:27:17,13.9667,74.5667,74.8,54,23,6.8,few clouds
229,Sao Joao Da Barra,BR,2022-11-30 21:27:18,-21.6403,-41.0511,75.29,90,100,16.82,overcast clouds
230,Katobu,ID,2022-11-30 21:27:18,-4.9408,122.5276,75.0,93,100,2.51,overcast clouds
231,Chake Chake,TZ,2022-11-30 21:27:19,-5.2459,39.7666,76.6,88,56,6.42,broken clouds
232,Baghdad,IQ,2022-11-30 21:23:15,33.3406,44.4009,58.91,94,0,2.3,clear sky
233,Balfour,ZA,2022-11-30 21:27:20,-26.6633,28.5902,58.41,56,1,5.99,clear sky
234,Chase,CA,2022-11-30 21:27:21,50.8165,-119.6857,29.28,92,100,1.74,light snow
235,Boyolangu,ID,2022-11-30 21:27:22,-8.1181,111.8935,75.13,86,98,5.73,overcast clouds
236,Torbay,CA,2022-11-30 21:27:23,47.6666,-52.7314,23.77,82,20,3.0,few clouds
237,Aksu,CN,2022-11-30 21:27:24,41.1231,80.2644,15.84,20,8,1.41,clear sky
238,Linxia,CN,2022-11-30 21:27:25,35.6003,103.2064,17.6,36,64,2.01,broken clouds
239,Rosita,NI,2022-11-30 21:27:25,13.9268,-84.4032,77.72,91,99,2.68,overcast clouds
240,Dikson,RU,2022-11-30 21:27:26,73.5069,80.5464,22.23,95,100,11.63,overcast clouds
241,Ust-Omchug,RU,2022-11-30 21:27:26,61.15,149.6333,-15.5,99,100,7.05,light snow
242,Saint-Georges,GD,2022-11-30 21:23:41,12.0564,-61.7485,82.08,74,20,11.5,few clouds
243,Marrakesh,MA,2022-11-30 21:24:27,31.6315,-8.0083,59.07,47,0,3.44,clear sky
244,Udachnyy,RU,2022-11-30 21:27:27,66.4167,112.4,-26.43,96,100,11.9,overcast clouds
245,Santo Domingo,DO,2022-11-30 21:23:06,18.5001,-69.9886,78.44,91,75,11.5,moderate rain
246,Poronaysk,RU,2022-11-30 21:27:28,49.2167,143.1167,7.0,72,79,15.68,broken clouds
247,Bodden Town,KY,2022-11-30 21:27:28,19.2833,-81.25,86.0,68,20,10.36,few clouds
248,Puebla,MX,2022-11-30 21:27:29,18.8333,-98.0,76.37,28,20,9.66,few clouds
249,Weyburn,CA,2022-11-30 21:27:29,49.6668,-103.8511,1.62,78,47,4.61,scattered clouds
250,Anadyr,RU,2022-11-30 21:27:30,64.75,177.4833,28.9,86,0,8.95,clear sky
251,Mandalgovi,MN,2022-11-30 21:27:30,45.7625,106.2708,-4.83,57,5,5.23,clear sky
252,Mahibadhoo,MV,2022-11-30 21:27:31,3.7833,72.9667,80.35,69,35,3.78,scattered clouds
253,Kaka,TM,2022-11-30 21:27:31,37.3482,59.6143,47.86,58,100,5.01,overcast clouds
254,Matay,EG,2022-11-30 21:27:32,28.419,30.7792,62.4,43,0,3.76,clear sky
255,Sucua,EC,2022-11-30 21:27:32,-2.4667,-78.1667,84.94,57,75,6.91,moderate rain
256,Kurduvadi,IN,2022-11-30 21:27:33,18.0833,75.4333,65.88,39,7,7.07,clear sky
257,Batemans Bay,AU,2022-11-30 21:23:30,-35.7167,150.1833,64.09,74,60,1.45,broken clouds
258,Labytnangi,RU,2022-11-30 21:27:34,66.6572,66.4183,-6.3,99,7,1.79,clear sky
259,Auki,SB,2022-11-30 21:27:34,-8.7676,160.7034,79.75,82,100,2.89,light rain
260,Farafangana,MG,2022-11-30 21:27:34,-22.8167,47.8333,72.81,92,94,7.25,overcast clouds
261,Manokwari,ID,2022-11-30 21:27:35,-0.8667,134.0833,77.36,81,100,3.04,overcast clouds
262,Kasempa,ZM,2022-11-30 21:27:35,-13.4584,25.8338,66.47,84,78,4.12,broken clouds
263,Amuntai,ID,2022-11-30 21:27:36,-2.4177,115.2494,73.53,99,100,0.56,moderate rain
264,Dong Hoi,VN,2022-11-30 21:27:36,17.4833,106.6,76.35,88,100,6.4,overcast clouds
265,Gondanglegi,ID,2022-11-30 21:27:37,-7.7479,112.0132,74.08,87,99,11.92,overcast clouds
266,Natal,BR,2022-11-30 21:27:37,-5.795,-35.2094,81.25,73,20,12.66,few clouds
267,Srednekolymsk,RU,2022-11-30 21:27:38,67.45,153.6833,-13.09,99,100,5.77,light snow
268,Nome,US,2022-11-30 21:27:38,64.5011,-165.4064,24.87,81,100,10.36,snow
269,Rorvik,NO,2022-11-30 21:28:39,64.8621,11.2373,37.51,65,40,10.36,scattered clouds
270,San Cristobal,VE,2022-11-30 21:28:39,7.7669,-72.225,71.78,73,49,5.55,scattered clouds
271,Comodoro Rivadavia,AR,2022-11-30 21:28:40,-45.8667,-67.5,62.46,42,0,21.85,clear sky
272,Lagoa,PT,2022-11-30 21:28:40,39.05,-27.9833,61.99,75,2,7.99,clear sky
273,Tazovskiy,RU,2022-11-30 21:28:41,67.4667,78.7,-5.58,100,99,7.29,overcast clouds
274,Cururupu,BR,2022-11-30 21:25:28,-1.8283,-44.8683,76.1,91,89,3.76,overcast clouds
275,Vila Franca Do Campo,PT,2022-11-30 21:28:41,37.7167,-25.4333,61.21,86,61,3.91,broken clouds
276,Shakawe,BW,2022-11-30 21:28:42,-18.3667,21.85,79.02,31,37,6.53,scattered clouds
277,Hilo,US,2022-11-30 21:25:17,19.7297,-155.09,86.29,82,40,5.75,scattered clouds
278,Chara,RU,2022-11-30 21:28:42,56.9064,118.2631,-21.57,83,100,1.97,overcast clouds
279,Nepa Nagar,IN,2022-11-30 21:28:43,21.4667,76.4,64.58,55,99,3.71,overcast clouds
280,Deep River,CA,2022-11-30 21:28:43,46.1001,-77.4995,37.15,83,100,12.73,overcast clouds
281,Kodiak,US,2022-11-30 21:28:44,57.79,-152.4072,18.91,68,0,4.61,clear sky
282,Ahipara,NZ,2022-11-30 21:28:44,-35.1667,173.1667,61.29,70,99,15.77,overcast clouds
283,Kamaishi,JP,2022-11-30 21:28:45,39.2667,141.8833,35.76,59,78,6.35,broken clouds
284,Ordu,TR,2022-11-30 21:28:45,40.9086,37.6845,41.5,80,47,3.83,scattered clouds
285,Puerto Madryn,AR,2022-11-30 21:28:46,-42.7692,-65.0385,66.94,47,38,22.97,scattered clouds
286,Yarada,IN,2022-11-30 21:28:47,17.65,83.2667,75.52,94,4,2.3,mist
287,Rio Grande,BR,2022-11-30 21:28:47,-32.035,-52.0986,78.91,82,21,18.54,few clouds
288,Bandarbeyla,SO,2022-11-30 21:28:48,9.4942,50.8122,77.99,83,7,15.95,light rain
289,Petropavlovsk-Kamchatskiy,RU,2022-11-30 21:28:48,53.0452,158.6483,27.19,86,75,4.47,broken clouds
290,Miandrivazo,MG,2022-11-30 21:28:48,-19.5167,45.4667,77.94,74,67,1.9,broken clouds
291,Souillac,MU,2022-11-30 21:28:49,-20.5167,57.5167,73.78,83,40,2.3,light rain
292,Laguna,US,2022-11-30 21:28:49,38.421,-121.4238,61.05,45,0,10.36,clear sky
293,Mwinilunga,ZM,2022-11-30 21:28:50,-11.7358,24.4293,61.48,93,16,2.04,few clouds
294,Rampura,IN,2022-11-30 21:28:50,30.25,75.2333,58.51,32,0,3.85,clear sky
295,Rudbar,AF,2022-11-30 21:28:51,30.15,62.6,57.69,41,100,4.47,overcast clouds
296,Kiama,AU,2022-11-30 21:28:51,-34.6833,150.8667,66.0,79,100,3.56,overcast clouds
297,Sorel,CA,2022-11-30 21:28:52,46.0418,-73.1136,46.76,91,100,18.75,moderate rain
298,Taungdwingyi,MM,2022-11-30 21:28:52,20.0167,95.55,72.86,68,10,3.24,clear sky
299,Padang,ID,2022-11-30 21:28:53,-0.9492,100.3543,75.25,95,100,2.24,overcast clouds
300,Riberalta,BO,2022-11-30 21:28:53,-10.9833,-66.1,91.6,55,75,4.61,broken clouds
301,Bethanien,NA,2022-11-30 21:28:54,-26.502,17.1583,80.78,31,41,4.83,scattered clouds
302,Dodola,ET,2022-11-30 21:28:54,6.9833,39.1833,48.61,66,29,2.21,scattered clouds
303,Mercedes,AR,2022-11-30 21:28:55,-34.6515,-59.4307,74.64,69,100,17.4,overcast clouds
304,Havoysund,NO,2022-11-30 21:28:55,70.9963,24.6622,35.83,82,80,7.31,broken clouds
305,Salinopolis,BR,2022-11-30 21:28:56,-0.6136,-47.3561,80.13,75,100,7.11,overcast clouds
306,Brigantine,US,2022-11-30 21:26:46,39.4101,-74.3646,59.2,96,100,16.11,mist
307,Hakkari,TR,2022-11-30 21:28:56,37.5833,44.1667,31.78,100,75,2.3,mist
308,Thompson,CA,2022-11-30 21:26:34,55.7435,-97.8558,-11.04,58,20,9.22,few clouds
309,Quelimane,MZ,2022-11-30 21:28:57,-17.8786,36.8883,71.55,88,20,3.44,few clouds
310,Namibe,AO,2022-11-30 21:28:58,-15.1961,12.1522,70.65,71,80,2.89,broken clouds
311,Novoomskiy,RU,2022-11-30 21:28:58,54.8415,73.3017,-4.99,59,0,8.95,clear sky
312,Tezu,IN,2022-11-30 21:28:59,27.9167,96.1667,63.93,45,29,4.5,scattered clouds
313,Prince Rupert,CA,2022-11-30 21:24:38,54.3161,-130.3201,26.69,38,0,28.77,clear sky
314,Chuy,UY,2022-11-30 21:29:00,-33.6971,-53.4616,73.27,79,10,16.78,clear sky
315,Juba,SS,2022-11-30 21:29:00,4.8517,31.5825,78.04,56,88,3.33,overcast clouds
316,Ayr,GB,2022-11-30 21:30:01,55.4627,-4.6339,42.78,87,75,5.75,broken clouds
317,Ugoofaaru,MV,2022-11-30 21:30:01,5.6667,73.0,80.8,68,21,2.46,few clouds
318,Lazarev,RU,2022-11-30 21:30:03,52.225,141.5131,-5.69,84,100,7.23,overcast clouds
319,Hervey Bay,AU,2022-11-30 21:28:43,-25.2986,152.8535,69.76,88,100,25.68,overcast clouds
320,Coquimbo,CL,2022-11-30 21:30:07,-29.9533,-71.3436,65.93,68,100,10.36,overcast clouds
321,Ouesso,CG,2022-11-30 21:30:08,1.6136,16.0517,69.12,98,100,0.34,overcast clouds
322,Ust-Tarka,RU,2022-11-30 21:30:10,55.5672,75.705,-9.94,89,16,5.39,few clouds
323,Gallneukirchen,AT,2022-11-30 21:30:11,48.3543,14.4127,37.45,91,91,3.51,overcast clouds
324,Corrente,BR,2022-11-30 21:30:18,-3.7367,-43.3394,75.85,85,90,3.56,overcast clouds
325,Paamiut,GL,2022-11-30 21:30:19,61.994,-49.6678,25.83,84,100,45.54,overcast clouds
326,Bama,NG,2022-11-30 21:30:20,11.5221,13.6856,68.94,34,99,5.59,overcast clouds
327,San Luis,AR,2022-11-30 21:30:21,-33.295,-66.3356,77.5,38,79,14.36,broken clouds
328,Kavaratti,IN,2022-11-30 21:30:22,10.5669,72.642,80.92,74,4,3.4,clear sky
329,Ucluelet,CA,2022-11-30 21:30:23,48.9329,-125.5528,38.08,78,20,2.98,few clouds
330,Kita,ML,2022-11-30 21:30:23,13.0349,-9.4895,78.78,20,94,3.11,overcast clouds
331,Kutum,SD,2022-11-30 21:30:25,14.2,24.6667,69.96,27,13,7.29,few clouds
332,Novopokrovka,UA,2022-11-30 21:30:26,49.8425,36.5477,29.01,46,100,14.0,overcast clouds
333,Vanavara,RU,2022-11-30 21:30:27,60.34,102.2797,-2.27,98,100,4.54,overcast clouds
334,Morgan City,US,2022-11-30 21:27:48,29.6994,-91.2068,68.0,39,0,17.27,clear sky
335,Kenai,US,2022-11-30 21:30:29,60.5544,-151.2583,3.25,85,0,4.61,clear sky
336,Flinders,AU,2022-11-30 21:30:30,-34.5833,150.8552,65.25,79,100,4.0,overcast clouds
337,Cap Malheureux,MU,2022-11-30 21:30:31,-19.9842,57.6142,74.46,75,49,1.99,scattered clouds
338,Quatre Cocos,MU,2022-11-30 21:30:31,-20.2078,57.7625,74.08,74,35,7.49,light rain
339,Beberibe,BR,2022-11-30 21:30:33,-4.1797,-38.1306,78.71,75,69,11.18,broken clouds
340,Cruzeiro,BR,2022-11-30 21:30:34,-22.5761,-44.9628,71.76,92,45,1.05,moderate rain
341,Karacakoy,TR,2022-11-30 21:30:34,41.4029,28.3834,55.24,90,100,17.78,overcast clouds
342,Victoria,HK,2022-11-30 21:25:36,22.2855,114.1577,63.32,81,100,18.01,overcast clouds
343,Kruisfontein,ZA,2022-11-30 21:30:35,-34.0033,24.7314,64.89,72,8,4.54,clear sky
344,Coihaique,CL,2022-11-30 21:30:35,-45.5752,-72.0662,60.75,36,20,5.75,few clouds
345,Misratah,LY,2022-11-30 21:30:36,32.3754,15.0925,60.98,50,8,16.08,clear sky
346,Karratha,AU,2022-11-30 21:30:36,-20.7377,116.8463,80.89,57,91,7.7,light rain
347,Salekhard,RU,2022-11-30 21:30:37,66.53,66.6019,-8.66,100,7,1.72,clear sky
348,Berdigestyakh,RU,2022-11-30 21:30:37,62.0989,126.6992,-20.42,97,100,5.32,overcast clouds
349,Richmond,US,2022-11-30 21:26:20,37.5538,-77.4603,63.07,84,40,14.97,scattered clouds
350,Pochutla,MX,2022-11-30 21:30:38,15.7432,-96.4661,87.82,62,29,5.64,scattered clouds
351,Saint-Francois,FR,2022-11-30 21:30:39,46.4154,3.9054,43.68,93,75,4.61,broken clouds
352,Tulum,MX,2022-11-30 21:26:44,20.2167,-87.4667,79.88,83,94,5.53,light rain
353,Port Macquarie,AU,2022-11-30 21:30:40,-31.4333,152.9167,60.89,61,100,6.26,moderate rain
354,Umm Kaddadah,SD,2022-11-30 21:30:41,13.6017,26.6876,76.48,19,21,16.55,few clouds
355,Gondar,ET,2022-11-30 21:30:41,12.6,37.4667,58.05,36,9,7.38,clear sky
356,Dalbandin,PK,2022-11-30 21:30:41,28.8947,64.4101,58.15,30,100,6.06,overcast clouds
357,Davenda,RU,2022-11-30 21:30:42,53.5556,119.317,-26.88,96,30,3.51,scattered clouds
358,Porto Novo,BJ,2022-11-30 21:28:32,6.4965,2.6036,82.22,80,47,6.4,scattered clouds
359,Naze,JP,2022-11-30 21:30:43,28.3667,129.4833,58.12,75,100,18.66,overcast clouds
360,The Valley,AI,2022-11-30 21:28:41,18.217,-63.0578,80.74,74,40,8.05,scattered clouds
361,Laguna De Perlas,NI,2022-11-30 21:31:44,12.3429,-83.6712,75.29,86,99,7.72,overcast clouds
362,Atar,MR,2022-11-30 21:31:45,20.5169,-13.0499,71.98,16,7,6.91,clear sky
363,Port Hardy,CA,2022-11-30 21:30:24,50.6996,-127.4199,32.18,80,75,8.05,broken clouds
364,Valparaiso,CL,2022-11-30 21:28:53,-33.0393,-71.6273,68.23,68,20,8.05,few clouds
365,Srandakan,ID,2022-11-30 21:31:46,-7.9386,110.2506,77.31,79,100,3.36,overcast clouds
366,Conde,BR,2022-11-30 21:31:46,-7.2597,-34.9075,80.06,74,20,6.91,few clouds
367,Andapa,MG,2022-11-30 21:31:47,-14.65,49.65,68.7,96,76,0.29,broken clouds
368,Bako,ET,2022-11-30 21:31:47,5.7833,36.5667,67.64,45,100,3.74,overcast clouds
369,Umarkot,PK,2022-11-30 21:31:48,25.3616,69.7362,64.6,26,0,5.53,clear sky
370,Vao,NC,2022-11-30 21:29:36,-22.6667,167.4833,77.68,84,88,6.73,overcast clouds
371,Husavik,IS,2022-11-30 21:28:52,66.0449,-17.3389,41.5,89,100,13.51,overcast clouds
372,San Policarpo,PH,2022-11-30 21:31:49,12.1791,125.5072,82.11,82,94,15.37,overcast clouds
373,Tautira,PF,2022-11-30 21:31:49,-17.7333,-149.15,78.4,81,32,12.91,scattered clouds
374,Mahebourg,MU,2022-11-30 21:31:50,-20.4081,57.7,74.25,83,40,2.3,scattered clouds
375,Kijang,KR,2022-11-30 21:31:51,35.2442,129.2139,31.73,27,95,5.06,overcast clouds
376,Itarema,BR,2022-11-30 21:31:51,-2.9248,-39.9167,79.72,73,92,14.7,overcast clouds
377,Touros,BR,2022-11-30 21:31:52,-5.1989,-35.4608,79.05,68,100,11.34,overcast clouds
378,Bulembu,SZ,2022-11-30 21:31:52,-25.9667,31.1333,54.59,90,0,0.98,clear sky
379,Maple Creek,CA,2022-11-30 21:31:53,49.9168,-109.4848,14.05,62,100,10.36,snow
380,Lasa,IT,2022-11-30 21:31:53,46.6166,10.7002,41.88,92,100,2.33,overcast clouds
381,Ust-Nera,RU,2022-11-30 21:31:54,64.5667,143.2,-21.6,99,100,8.5,overcast clouds
382,Belfast,GB,2022-11-30 21:27:45,54.5833,-5.9333,49.82,93,75,10.36,drizzle
383,Avera,US,2022-11-30 21:31:55,33.194,-82.5271,68.05,65,39,15.48,scattered clouds
384,Campbell River,CA,2022-11-30 21:30:17,50.0163,-125.2446,35.13,86,75,0.0,broken clouds
385,Majene,ID,2022-11-30 21:31:56,-3.5403,118.9707,78.8,81,100,5.28,moderate rain
386,Pitimbu,BR,2022-11-30 21:31:56,-7.4706,-34.8086,81.19,70,100,10.25,overcast clouds
387,Brzeg,PL,2022-11-30 21:31:57,50.8608,17.4674,32.11,85,84,6.08,broken clouds
388,Komsomolskiy,UZ,2022-11-30 21:31:57,40.4272,71.7189,48.92,71,40,13.8,scattered clouds
389,Kushmurun,KZ,2022-11-30 21:31:58,52.4503,64.6311,2.82,90,91,9.4,overcast clouds
390,Dawson Creek,CA,2022-11-30 21:30:23,55.7666,-120.2362,-7.96,71,100,9.22,light snow
391,Puerto Escondido,MX,2022-11-30 21:27:57,15.85,-97.0667,83.23,61,75,8.05,thunderstorm
392,Muros,ES,2022-11-30 21:31:59,42.7762,-9.0603,50.09,91,97,5.23,overcast clouds
393,San Javier,ES,2022-11-30 21:32:00,37.8063,-0.8374,58.12,74,0,2.3,clear sky
394,Khandyga,RU,2022-11-30 21:32:01,62.6667,135.6,-32.35,96,100,0.98,overcast clouds
395,Marawi,PH,2022-11-30 21:32:01,7.9986,124.2928,67.17,95,41,1.41,scattered clouds
396,Ilulissat,GL,2022-11-30 21:32:03,69.2167,-51.1,23.02,86,100,27.63,light snow
397,Guerrero Negro,MX,2022-11-30 21:32:04,27.9769,-114.0611,64.42,61,33,13.29,scattered clouds
398,Buin,CL,2022-11-30 21:32:05,-33.7333,-70.75,79.05,34,0,11.63,clear sky
399,Darhan,MN,2022-11-30 21:32:06,49.4867,105.9228,-8.57,87,41,7.02,scattered clouds
400,Constitucion,CL,2022-11-30 21:32:07,-35.3333,-72.4167,60.12,67,0,17.6,clear sky
401,Sioux Lookout,CA,2022-11-30 21:32:07,50.1001,-91.917,15.87,79,100,17.27,overcast clouds
402,Oktyabrskiy,RU,2022-11-30 21:32:08,54.4815,53.471,5.45,98,83,1.77,broken clouds
403,Lata,PT,2022-11-30 21:30:41,40.1629,-8.3327,52.07,93,100,4.97,overcast clouds
404,Kardla,EE,2022-11-30 21:33:09,58.9978,22.7492,29.05,92,100,4.97,overcast clouds
405,Eenhana,NA,2022-11-30 21:33:09,-17.4667,16.3333,77.9,38,64,4.83,broken clouds
406,Usinsk,RU,2022-11-30 21:33:10,65.9939,57.5281,-9.99,100,99,3.44,overcast clouds
407,Lovozero,RU,2022-11-30 21:33:11,68.005,35.0117,20.88,89,100,2.66,overcast clouds
408,Susanville,US,2022-11-30 21:33:12,40.4163,-120.653,47.91,39,0,15.99,clear sky
409,Capreol,CA,2022-11-30 21:33:13,46.706,-80.9225,30.67,64,100,20.71,overcast clouds
410,San Marcos,US,2022-11-30 21:33:14,33.1434,-117.1661,64.22,66,100,9.22,overcast clouds
411,Gouyave,GD,2022-11-30 21:33:16,12.1646,-61.7296,81.37,74,20,11.5,few clouds
412,Fomboni,KM,2022-11-30 21:33:17,-12.28,43.7425,79.12,71,0,3.98,clear sky
413,Portland,US,2022-11-30 21:31:22,45.5234,-122.6762,49.51,88,75,12.66,broken clouds
414,Saint-Louis,SN,2022-11-30 21:33:18,16.3333,-15.0,78.44,15,9,11.36,clear sky
415,Taoudenni,ML,2022-11-30 21:33:19,22.6783,-3.9836,66.52,19,0,10.33,clear sky
416,Kavieng,PG,2022-11-30 21:33:21,-2.5744,150.7967,82.83,71,26,1.86,scattered clouds
417,Maxixe,MZ,2022-11-30 21:33:21,-23.8597,35.3472,70.77,88,21,7.81,light rain
418,Tuatapere,NZ,2022-11-30 21:29:17,-46.1333,167.6833,52.77,73,86,6.82,overcast clouds
419,Katesh,TZ,2022-11-30 21:33:22,-4.5167,35.3833,60.01,82,100,6.44,overcast clouds
420,Vila Velha,BR,2022-11-30 21:33:23,-20.3297,-40.2925,76.95,94,100,6.91,moderate rain
421,Honningsvag,NO,2022-11-30 21:33:24,70.9821,25.9704,35.35,80,75,17.27,broken clouds
422,Bubaque,GW,2022-11-30 21:33:25,11.2833,-15.8333,81.84,66,43,12.19,scattered clouds
423,Alappuzha,IN,2022-11-30 21:33:26,9.49,76.3264,78.01,87,53,5.39,broken clouds
424,Ko Samui,TH,2022-11-30 21:33:27,9.5357,99.9357,80.33,77,100,1.21,overcast clouds
425,Yantongshan,CN,2022-11-30 21:33:27,43.2919,126.0094,4.77,64,76,13.62,broken clouds
426,Nokha,IN,2022-11-30 21:33:28,27.6,73.4167,59.38,28,0,6.35,clear sky
427,Beruwala,LK,2022-11-30 21:33:28,6.4788,79.9828,75.87,87,100,4.97,overcast clouds
428,Lingao,CN,2022-11-30 21:33:29,19.9103,109.6859,70.99,89,100,20.78,overcast clouds
429,Manuk Mangkaw,PH,2022-11-30 21:33:30,4.8,119.85,81.7,75,97,7.11,overcast clouds
430,Ballina,AU,2022-11-30 21:33:30,-28.8667,153.5667,60.01,99,100,18.34,light rain
431,Vestmannaeyjar,IS,2022-11-30 21:28:47,63.4427,-20.2734,47.07,82,92,22.12,overcast clouds
432,Port Keats,AU,2022-11-30 21:33:31,-14.25,129.55,81.59,58,93,5.75,overcast clouds
433,Kilindoni,TZ,2022-11-30 21:33:31,-7.9139,39.6668,79.48,82,44,9.33,scattered clouds
434,Prado,BR,2022-11-30 21:33:32,-17.3411,-39.2208,76.87,91,100,6.51,light rain
435,Tomatlan,MX,2022-11-30 21:33:32,19.9333,-105.25,82.96,58,14,7.36,few clouds
436,Gambela,ET,2022-11-30 21:33:33,8.25,34.5833,76.87,59,30,3.8,scattered clouds
437,Kalmunai,LK,2022-11-30 21:33:33,7.4167,81.8167,76.69,85,94,1.28,overcast clouds
438,Hokitika,NZ,2022-11-30 21:33:34,-42.7167,170.9667,55.94,81,99,13.27,overcast clouds
439,Moron,AR,2022-11-30 21:33:34,-34.6534,-58.6198,77.99,65,87,14.0,overcast clouds
440,Usakos,NA,2022-11-30 21:33:35,-22.0,15.6,78.62,33,16,4.18,few clouds
441,Eyl,SO,2022-11-30 21:33:35,7.9803,49.8164,77.32,78,11,13.18,few clouds
442,Rawson,AR,2022-11-30 21:33:36,-43.3002,-65.1023,67.51,45,24,25.81,few clouds
443,Kulhudhuffushi,MV,2022-11-30 21:33:36,6.6221,73.07,81.18,67,27,2.04,heavy intensity rain
444,Santiago,CL,2022-11-30 21:30:19,-33.4569,-70.6483,78.28,42,20,19.57,few clouds
445,Tigil,RU,2022-11-30 21:33:37,57.8,158.6667,24.66,96,100,4.32,light snow
446,Wahiawa,US,2022-11-30 21:33:38,21.5028,-158.0236,81.79,63,20,9.22,few clouds
447,Hualmay,PE,2022-11-30 21:33:38,-11.0964,-77.6139,70.72,75,66,9.66,broken clouds
448,Juterbog,DE,2022-11-30 21:33:39,51.9833,13.0833,35.19,95,64,1.99,broken clouds
449,Kimbe,PG,2022-11-30 21:33:39,-5.5502,150.1429,80.94,82,80,0.92,broken clouds
450,Pallasovka,RU,2022-11-30 21:34:39,50.05,46.8833,21.63,68,0,6.71,clear sky
451,Catalina Foothills,US,2022-11-30 21:34:40,32.2979,-110.9187,76.3,23,20,3.0,few clouds
452,Silifke,TR,2022-11-30 21:34:40,36.3778,33.9344,62.91,71,100,6.15,overcast clouds
453,Aksaray,TR,2022-11-30 21:34:41,38.3726,34.0254,49.55,70,100,3.33,overcast clouds
454,Kysyl-Syr,RU,2022-11-30 21:34:41,63.8986,122.7617,-29.78,98,100,4.94,overcast clouds
455,Saint-Joseph,RE,2022-11-30 21:34:42,-21.3667,55.6167,73.78,78,49,7.34,scattered clouds
456,Doctor Juan Leon Mallorquin,PY,2022-11-30 21:34:42,-25.4,-55.2667,83.93,71,45,3.85,scattered clouds
457,Shellbrook,CA,2022-11-30 21:34:43,53.2168,-106.4011,-6.57,94,100,7.27,overcast clouds
458,Imbituba,BR,2022-11-30 21:34:43,-28.24,-48.6703,74.86,97,100,12.62,moderate rain
459,Faya,SA,2022-11-30 21:34:44,18.3851,42.4509,57.31,80,86,2.26,overcast clouds
460,Rangpur,BD,2022-11-30 21:34:44,25.75,89.25,64.53,59,14,6.53,few clouds
461,Cockburn Town,TC,2022-11-30 21:34:45,21.4612,-71.1419,82.36,61,40,9.22,scattered clouds
462,Batticaloa,LK,2022-11-30 21:34:45,7.7102,81.6924,77.59,83,90,1.23,overcast clouds
463,Aykhal,RU,2022-11-30 21:34:46,66.0,111.5,-28.59,99,98,11.43,overcast clouds
464,Stromness,GB,2022-11-30 21:34:46,58.965,-3.296,46.87,87,100,18.01,overcast clouds
465,Karpathos,GR,2022-11-30 21:34:47,35.507,27.2132,64.36,77,26,13.8,scattered clouds
466,Sao Jose Da Coroa Grande,BR,2022-11-30 21:34:47,-8.8978,-35.1478,77.65,78,100,9.71,overcast clouds
467,Eureka,US,2022-11-30 21:34:48,40.8021,-124.1637,56.01,63,100,13.0,overcast clouds
468,Keita,NE,2022-11-30 21:34:48,14.7551,5.7749,70.75,23,4,6.67,clear sky
469,Tulun,RU,2022-11-30 21:34:49,54.5611,100.5792,-1.55,80,56,8.75,broken clouds
470,Pierre,US,2022-11-30 21:34:49,44.3683,-100.351,26.28,51,0,10.0,clear sky
471,Biryusinsk,RU,2022-11-30 21:34:50,55.9634,97.8235,-1.98,80,92,14.97,overcast clouds
472,Inhambane,MZ,2022-11-30 21:31:56,-23.865,35.3833,71.92,85,20,9.57,light rain
473,Macas,EC,2022-11-30 21:31:34,-2.3167,-78.1167,83.95,57,75,6.91,broken clouds
474,Grand Gaube,MU,2022-11-30 21:34:50,-20.0064,57.6608,74.37,75,50,1.01,scattered clouds
475,Kisangani,CD,2022-11-30 21:34:51,0.5167,25.2,67.57,99,83,1.79,broken clouds
476,Kloulklubed,PW,2022-11-30 21:34:51,7.0419,134.2556,77.5,76,99,17.34,overcast clouds
477,Galveston,US,2022-11-30 21:34:52,29.3669,-94.9669,66.29,47,0,19.57,clear sky
478,Sabha,LY,2022-11-30 21:34:52,27.0377,14.4283,52.99,34,0,5.12,clear sky
479,Chimbote,PE,2022-11-30 21:32:17,-9.0853,-78.5783,69.64,76,79,10.07,broken clouds
480,Tallahassee,US,2022-11-30 21:30:28,30.4383,-84.2807,69.67,88,75,4.61,broken clouds
481,Opuwo,NA,2022-11-30 21:30:33,-18.0607,13.84,71.31,47,35,6.76,scattered clouds
482,Shenjiamen,CN,2022-11-30 21:34:54,29.9576,122.298,47.61,92,100,23.06,overcast clouds
483,Teguise,ES,2022-11-30 21:34:54,29.0605,-13.564,61.02,68,20,4.61,few clouds
484,Sorong,ID,2022-11-30 21:34:55,-0.8833,131.25,79.25,82,100,5.01,overcast clouds
485,Orange Cove,US,2022-11-30 21:34:55,36.6244,-119.3137,64.24,40,0,0.0,haze
486,Kahului,US,2022-11-30 21:33:42,20.8947,-156.47,81.84,80,20,13.0,few clouds
487,Clyde River,CA,2022-11-30 21:34:56,70.4692,-68.5914,-21.77,69,0,6.91,clear sky
488,Nizhniy Kuranakh,RU,2022-11-30 21:34:56,58.8353,125.4869,-11.97,93,100,8.25,overcast clouds
489,Caibarien,CU,2022-11-30 21:34:57,22.5206,-79.4669,85.32,76,29,13.56,scattered clouds
490,La Romana,DO,2022-11-30 21:30:22,18.4273,-68.9728,82.76,69,20,8.05,few clouds
491,Anstruther,GB,2022-11-30 21:34:58,56.2231,-2.7023,41.45,93,100,3.44,mist
492,Pelym,RU,2022-11-30 21:34:58,61.0108,61.9978,6.22,96,100,2.84,overcast clouds
493,Talnakh,RU,2022-11-30 21:34:59,69.4865,88.3972,-3.1,100,99,5.23,overcast clouds
494,Jiangmen,CN,2022-11-30 21:35:00,22.5833,113.0833,56.98,64,100,14.58,overcast clouds
495,Basoko,CD,2022-11-30 21:35:00,1.2391,23.616,69.85,96,99,1.83,overcast clouds
496,Los Andes,CL,2022-11-30 21:31:48,-32.8337,-70.5983,75.0,45,25,10.18,scattered clouds
497,Soria,ES,2022-11-30 21:36:01,41.6667,-2.6667,35.85,92,43,1.97,scattered clouds
498,Camacha,PT,2022-11-30 21:36:01,33.0833,-16.3333,63.82,77,40,10.36,scattered clouds
499,Bamako,ML,2022-11-30 21:33:36,12.65,-8.0,75.61,50,89,0.0,overcast clouds
500,Sarkand,KZ,2022-11-30 21:36:02,45.41,79.9186,29.64,87,100,3.18,overcast clouds
501,Antalaha,MG,2022-11-30 21:36:03,-14.9003,50.2788,71.11,92,7,3.6,clear sky
502,Borogontsy,RU,2022-11-30 21:36:03,62.6683,131.1683,-27.8,96,100,3.8,overcast clouds
503,Valdivia,CL,2022-11-30 21:32:04,-39.8142,-73.2459,66.29,38,5,1.97,clear sky
504,West Bay,KY,2022-11-30 21:36:05,19.3667,-81.4167,86.07,74,20,10.36,few clouds
505,Gandajika,CD,2022-11-30 21:36:05,-6.75,23.95,67.24,95,100,2.13,light rain
506,Haicheng,CN,2022-11-30 21:36:06,40.8516,122.7475,16.14,30,0,8.86,clear sky
507,Aflao,TG,2022-11-30 21:36:07,6.116,1.1914,80.67,79,85,7.96,overcast clouds
508,Dauphin,CA,2022-11-30 21:36:07,51.1494,-100.0502,3.34,78,100,4.61,overcast clouds
509,Riachao Das Neves,BR,2022-11-30 21:36:08,-11.7461,-44.91,69.82,94,100,1.79,overcast clouds
510,Grindavik,IS,2022-11-30 21:36:08,63.8424,-22.4338,46.35,93,75,27.63,broken clouds
511,Carlagan,PH,2022-11-30 21:36:09,14.975,122.0456,79.9,84,100,18.95,overcast clouds
512,Durres,AL,2022-11-30 21:36:10,41.3231,19.4414,48.38,68,100,7.63,overcast clouds
513,Dunedin,NZ,2022-11-30 21:32:27,-45.8742,170.5036,60.8,60,18,10.0,few clouds
514,Yar-Sale,RU,2022-11-30 21:36:11,66.8333,70.8333,-9.74,100,26,4.36,scattered clouds
515,Saint Anthony,US,2022-11-30 21:36:12,45.0205,-93.218,19.35,66,75,23.02,broken clouds
516,Ulaangom,MN,2022-11-30 21:36:12,49.9811,92.0667,-11.7,95,100,1.28,overcast clouds
517,Lokosovo,RU,2022-11-30 21:36:13,61.1333,74.8167,-18.44,99,33,1.79,scattered clouds
518,Leh,IN,2022-11-30 21:36:13,34.1667,77.5833,19.51,56,94,0.98,overcast clouds
519,Newport,GB,2022-11-30 21:36:14,51.5877,-2.9984,45.01,76,48,3.98,scattered clouds
520,Tocopilla,CL,2022-11-30 21:36:14,-22.092,-70.1979,67.53,65,6,12.59,clear sky
521,Aksarka,RU,2022-11-30 21:36:15,66.5606,67.7975,-8.68,99,8,3.65,clear sky
522,Okhotsk,RU,2022-11-30 21:36:16,59.3833,143.3,0.41,98,100,15.79,light snow
523,Hambantota,LK,2022-11-30 21:36:16,6.1241,81.1185,73.74,100,100,2.3,overcast clouds
524,Ouro Preto Do Oeste,BR,2022-11-30 21:36:17,-10.7481,-62.2158,84.29,61,61,4.97,broken clouds
525,Songea,TZ,2022-11-30 21:36:18,-10.6833,35.65,64.63,88,99,2.3,light rain
526,Labuan,MY,2022-11-30 21:36:18,5.2767,115.2417,77.36,100,20,0.0,few clouds
527,Santa Leopoldina,BR,2022-11-30 21:36:19,-20.1006,-40.5297,76.62,99,100,3.22,overcast clouds
528,Te Anau,NZ,2022-11-30 21:36:19,-45.4167,167.7167,47.71,90,92,1.63,overcast clouds
529,Saryagash,KZ,2022-11-30 21:36:20,41.4511,69.1701,35.56,74,100,3.53,overcast clouds
530,Macheng,CN,2022-11-30 21:36:22,31.1783,115.0319,29.57,61,99,5.12,overcast clouds
531,Tabuk,PH,2022-11-30 21:36:23,17.4189,121.4443,73.72,93,81,3.04,broken clouds
532,Bathsheba,BB,2022-11-30 21:36:24,13.2167,-59.5167,81.21,74,40,18.41,scattered clouds
533,Nong Kung Si,TH,2022-11-30 21:36:25,16.65,103.3,75.72,75,98,8.77,overcast clouds
534,Zyryanka,RU,2022-11-30 21:36:26,65.75,150.85,-16.51,97,100,10.09,overcast clouds
535,Half Moon Bay,US,2022-11-30 21:36:26,37.4636,-122.4286,60.67,60,0,6.91,clear sky
536,Faanui,PF,2022-11-30 21:36:27,-16.4833,-151.75,80.2,77,15,13.0,few clouds
537,Bandundu,CD,2022-11-30 21:36:27,-3.3167,17.3667,68.31,96,95,1.07,overcast clouds
538,Bitlis,TR,2022-11-30 21:36:28,38.5,42.25,38.66,93,97,3.94,overcast clouds
539,El Tigre,VE,2022-11-30 21:36:28,8.8875,-64.2454,78.17,64,44,6.67,scattered clouds
540,Papar,MY,2022-11-30 21:36:29,5.7333,115.9333,77.0,89,100,3.4,overcast clouds
541,Byron Bay,AU,2022-11-30 21:32:09,-28.65,153.6167,59.94,88,100,18.3,light rain
542,Zenzeli,RU,2022-11-30 21:36:29,45.9241,47.0474,27.34,53,9,12.01,clear sky
543,Ambon,ID,2022-11-30 21:37:30,-3.6954,128.1814,78.24,15,40,6.91,scattered clouds
544,Bekhtery,UA,2022-11-30 21:37:30,46.251,32.2927,37.74,71,100,12.82,overcast clouds
545,Trelew,AR,2022-11-30 21:37:31,-43.249,-65.3051,72.54,31,20,22.1,few clouds
546,Barddhaman,IN,2022-11-30 21:37:31,23.25,87.85,64.87,62,0,7.07,clear sky
547,Lufilufi,WS,2022-11-30 21:37:32,-13.8745,-171.5986,82.18,72,38,3.4,light rain
548,Kununurra,AU,2022-11-30 21:37:32,-15.7667,128.7333,71.58,88,92,0.0,overcast clouds
549,Meadow Lake,US,2022-11-30 21:37:33,34.8014,-106.5436,55.69,25,80,6.76,broken clouds
550,Ban Nahin,LA,2022-11-30 21:37:33,18.2418,104.2122,70.34,97,32,4.07,scattered clouds
551,Asyut,EG,2022-11-30 21:37:34,27.181,31.1837,59.18,44,0,2.68,clear sky
552,Teahupoo,PF,2022-11-30 21:37:34,-17.8333,-149.2667,78.76,82,33,13.51,light rain
553,San Pedro,PH,2022-11-30 21:37:35,14.35,121.0167,77.36,94,100,6.91,light rain
554,Gunjur,GM,2022-11-30 21:37:35,13.2019,-16.7339,77.07,69,29,5.75,haze
555,Maputo,MZ,2022-11-30 21:37:36,-25.9653,32.5892,73.08,73,20,8.05,few clouds
556,Syamzha,RU,2022-11-30 21:37:36,60.0158,41.0614,9.84,97,50,1.61,scattered clouds
557,Mago,RU,2022-11-30 21:37:37,53.2514,140.1822,-4.9,97,99,4.85,overcast clouds
558,Maragogi,BR,2022-11-30 21:37:37,-9.0122,-35.2225,77.83,76,100,9.26,overcast clouds
559,Prescott Valley,US,2022-11-30 21:37:37,34.5894,-112.3252,59.25,38,0,15.01,clear sky
560,Wyndham,US,2022-11-30 21:37:38,37.6985,-77.6125,62.46,82,100,6.91,overcast clouds
561,Diveyevo,RU,2022-11-30 21:37:38,55.0433,43.2418,6.98,97,26,1.39,scattered clouds
562,Bullhead City,US,2022-11-30 21:37:39,35.1478,-114.5683,66.72,22,0,12.66,clear sky
563,Laramie,US,2022-11-30 21:35:50,41.3114,-105.5911,37.78,41,0,3.44,clear sky
564,Korla,CN,2022-11-30 21:37:40,41.7597,86.1469,14.83,19,75,4.36,broken clouds
565,Mangrol,IN,2022-11-30 21:37:40,21.1167,70.1167,71.94,40,0,10.16,clear sky
566,Mujiayingzi,CN,2022-11-30 21:37:40,42.1167,118.7833,6.03,40,0,9.6,clear sky
567,Araouane,ML,2022-11-30 21:37:41,18.9048,-3.5265,73.63,15,99,9.53,overcast clouds
568,Bac Lieu,VN,2022-11-30 21:37:41,9.285,105.7244,79.07,84,100,15.82,overcast clouds
569,Hede,CN,2022-11-30 21:37:42,33.7681,120.2517,30.61,56,100,10.98,overcast clouds
570,Inta,RU,2022-11-30 21:37:42,66.0317,60.1659,-13.45,100,34,0.85,scattered clouds
571,Kieta,PG,2022-11-30 21:37:43,-6.2167,155.6333,82.27,78,99,4.76,light rain
572,Sorland,NO,2022-11-30 21:37:43,67.667,12.6934,40.86,77,100,13.31,overcast clouds
573,Burnie,AU,2022-11-30 21:37:44,-41.0667,145.9167,56.95,53,0,6.33,clear sky
574,Igarka,RU,2022-11-30 21:37:44,67.4667,86.5833,3.79,95,100,13.02,overcast clouds
575,Beloha,MG,2022-11-30 21:37:45,-25.1667,45.05,70.16,90,100,11.18,overcast clouds
576,Ambanja,MG,2022-11-30 21:37:45,-13.6833,48.45,73.62,92,50,1.72,moderate rain
577,Portree,GB,2022-11-30 21:37:46,57.4129,-6.1942,47.52,95,100,11.59,overcast clouds
578,Zlobin,HR,2022-11-30 21:37:46,45.2924,14.6541,38.5,62,0,14.97,clear sky
579,Lazaro Cardenas,MX,2022-11-30 21:37:47,17.9583,-102.2,82.04,66,3,5.91,clear sky
580,Barcelos,PT,2022-11-30 21:34:34,41.5388,-8.6151,53.74,89,100,5.21,overcast clouds
581,Ternate,ID,2022-11-30 21:37:47,0.8,127.4,80.91,81,100,4.45,overcast clouds
